[{"county_name":null,"description":null,"feat_class":"Civil","feature_id":"36717","fips_class":"H1","fips_county_cd":"1","full_county_name":null,"link_title":null,"url":"http:\/\/www.co.apache.az.us\/","name":"Apache County","primary_latitude":"35","primary_longitude":"-109.37","state_abbreviation":"AZ","state_name":"Arizona"},{"county_name":null,"description":null,"feat_class":"Civil","feature_id":"36718","fips_class":"H1","fips_county_cd":"3","full_county_name":null,"link_title":null,"url":"http:\/\/cochise.az.gov\/","name":"Cochise County","primary_latitude":"31.93","primary_longitude":"-109.74","state_abbreviation":"AZ","state_name":"Arizona"},{"county_name":null,"description":null,"feat_class":"Civil","feature_id":"36719","fips_class":"H1","fips_county_cd":"5","full_county_name":null,"link_title":null,"url":"http:\/\/www.coconino.az.gov\/","name":"Coconino County","primary_latitude":"36.08","primary_longitude":"-112.13","state_abbreviation":"AZ","state_name":"Arizona"},{"county_name":null,"description":null,"feat_class":"Civil","feature_id":"36720","fips_class":"H1","fips_county_cd":"7","full_county_name":null,"link_title":null,"url":"http:\/\/www.gilacountyaz.gov","name":"Gila County","primary_latitude":"33.51","primary_longitude":"-110.51","state_abbreviation":"AZ","state_name":"Arizona"},{"county_name":null,"description":null,"feat_class":"Civil","feature_id":"36721","fips_class":"H1","fips_county_cd":"9","full_county_name":null,"link_title":null,"url":"http:\/\/www.graham.az.gov\/","name":"Graham County","primary_latitude":"33.01","primary_longitude":"-110.01","state_abbreviation":"AZ","state_name":"Arizona"},{"county_name":null,"description":null,"feat_class":"Civil","feature_id":"36722","fips_class":"H1","fips_county_cd":"11","full_county_name":null,"link_title":null,"url":"http:\/\/www.co.greenlee.az.us\/","name":"Greenlee County","primary_latitude":"33.37","primary_longitude":"-109.37","state_abbreviation":"AZ","state_name":"Arizona"},{"county_name":null,"description":null,"feat_class":"Civil","feature_id":"36723","fips_class":"H1","fips_county_cd":"12","full_county_name":null,"link_title":null,"url":"http:\/\/www.co.la-paz.az.us\/","name":"La Paz County","primary_latitude":"33.62","primary_longitude":"-113.87","state_abbreviation":"AZ","state_name":"Arizona"},{"county_name":null,"description":null,"feat_class":"Civil","feature_id":"36724","fips_class":"H1","fips_county_cd":"13","full_county_name":null,"link_title":null,"url":"http:\/\/www.maricopa.gov\/","name":"Maricopa County","primary_latitude":"33.5","primary_longitude":"-112.5","state_abbreviation":"AZ","state_name":"Arizona"},{"county_name":null,"description":null,"feat_class":"Civil","feature_id":"36725","fips_class":"H1","fips_county_cd":"15","full_county_name":null,"link_title":null,"url":"http:\/\/www.co.mohave.az.us\/","name":"Mohave County","primary_latitude":"36.08","primary_longitude":"-113.76","state_abbreviation":"AZ","state_name":"Arizona"},{"county_name":null,"description":null,"feat_class":"Civil","feature_id":"36726","fips_class":"H1","fips_county_cd":"17","full_county_name":null,"link_title":null,"url":"http:\/\/www.navajocountyaz.gov\/","name":"Navajo County","primary_latitude":"36.93","primary_longitude":"-110.81","state_abbreviation":"AZ","state_name":"Arizona"},{"county_name":null,"description":null,"feat_class":"Civil","feature_id":"36727","fips_class":"H1","fips_county_cd":"19","full_county_name":null,"link_title":null,"url":"http:\/\/www.pima.gov\/","name":"Pima County","primary_latitude":"32","primary_longitude":"-112","state_abbreviation":"AZ","state_name":"Arizona"},{"county_name":null,"description":null,"feat_class":"Civil","feature_id":"36728","fips_class":"H1","fips_county_cd":"21","full_county_name":null,"link_title":null,"url":"http:\/\/www.pinalcountyaz.gov","name":"Pinal County","primary_latitude":"33","primary_longitude":"-111.51","state_abbreviation":"AZ","state_name":"Arizona"},{"county_name":null,"description":null,"feat_class":"Civil","feature_id":"36729","fips_class":"H1","fips_county_cd":"23","full_county_name":null,"link_title":null,"url":"http:\/\/www.co.santa-cruz.az.us\/","name":"Santa Cruz County","primary_latitude":"31.58","primary_longitude":"-110.58","state_abbreviation":"AZ","state_name":"Arizona"},{"county_name":null,"description":null,"feat_class":"Civil","feature_id":"36730","fips_class":"H1","fips_county_cd":"25","full_county_name":null,"link_title":null,"url":"http:\/\/www.co.yavapai.az.us\/","name":"Yavapai County","primary_latitude":"34.5","primary_longitude":"-112.37","state_abbreviation":"AZ","state_name":"Arizona"},{"county_name":null,"description":null,"feat_class":"Civil","feature_id":"36731","fips_class":"H1","fips_county_cd":"27","full_county_name":null,"link_title":null,"url":"http:\/\/www.co.yuma.az.us\/","name":"Yuma County","primary_latitude":"32.75","primary_longitude":"-113.76","state_abbreviation":"AZ","state_name":"Arizona"}]