[{"county_name":null,"description":null,"feat_class":"Civil","feature_id":"37239","fips_class":"H1","fips_county_cd":"1","full_county_name":null,"link_title":null,"url":"http:\/\/www.co.adams.il.us\/","name":"Adams County","primary_latitude":"39.96","primary_longitude":"-91.18","state_abbreviation":"IL","state_name":"Illinois"},{"county_name":null,"description":null,"feat_class":"Civil","feature_id":"37242","fips_class":"H1","fips_county_cd":"7","full_county_name":null,"link_title":null,"url":"http:\/\/www.boonecountyil.org\/","name":"Boone County","primary_latitude":"42.33","primary_longitude":"-88.81","state_abbreviation":"IL","state_name":"Illinois"},{"county_name":null,"description":null,"feat_class":"Civil","feature_id":"37246","fips_class":"H1","fips_county_cd":"15","full_county_name":null,"link_title":null,"url":"http:\/\/www.gocarrollcounty.com\/","name":"Carroll County","primary_latitude":"42.06","primary_longitude":"-89.91","state_abbreviation":"IL","state_name":"Illinois"},{"county_name":null,"description":null,"feat_class":"Civil","feature_id":"37248","fips_class":"H1","fips_county_cd":"19","full_county_name":null,"link_title":null,"url":"http:\/\/www.co.champaign.il.us\/","name":"Champaign County","primary_latitude":"40.13","primary_longitude":"-88.2","state_abbreviation":"IL","state_name":"Illinois"},{"county_name":null,"description":null,"feat_class":"Civil","feature_id":"37250","fips_class":"H1","fips_county_cd":"23","full_county_name":null,"link_title":null,"url":"http:\/\/www.clarkcountyil.org\/","name":"Clark County","primary_latitude":"39.33","primary_longitude":"-87.8","state_abbreviation":"IL","state_name":"Illinois"},{"county_name":null,"description":null,"feat_class":"Civil","feature_id":"37252","fips_class":"H1","fips_county_cd":"27","full_county_name":null,"link_title":null,"url":"http:\/\/www.clintonco.org\/","name":"Clinton County","primary_latitude":"38.6","primary_longitude":"-89.4","state_abbreviation":"IL","state_name":"Illinois"},{"county_name":null,"description":null,"feat_class":"Civil","feature_id":"37253","fips_class":"H1","fips_county_cd":"29","full_county_name":null,"link_title":null,"url":"http:\/\/www.co.coles.il.us\/","name":"Coles County","primary_latitude":"39.55","primary_longitude":"-88.23","state_abbreviation":"IL","state_name":"Illinois"},{"county_name":null,"description":null,"feat_class":"Civil","feature_id":"37254","fips_class":"H1","fips_county_cd":"31","full_county_name":null,"link_title":null,"url":"http:\/\/www.co.cook.il.us\/","name":"Cook County","primary_latitude":"41.83","primary_longitude":"-87.85","state_abbreviation":"IL","state_name":"Illinois"},{"county_name":null,"description":null,"feat_class":"Civil","feature_id":"37257","fips_class":"H1","fips_county_cd":"39","full_county_name":null,"link_title":null,"url":"http:\/\/www.dewittcountyill.com\/","name":"De Witt County","primary_latitude":"40.16","primary_longitude":"-88.91","state_abbreviation":"IL","state_name":"Illinois"},{"county_name":null,"description":null,"feat_class":"Civil","feature_id":"37260","fips_class":"H1","fips_county_cd":"43","full_county_name":null,"link_title":null,"url":"http:\/\/www.co.dupage.il.us\/","name":"DuPage County","primary_latitude":"41.83","primary_longitude":"-88.08","state_abbreviation":"IL","state_name":"Illinois"},{"county_name":null,"description":null,"feat_class":"Civil","feature_id":"37263","fips_class":"H1","fips_county_cd":"49","full_county_name":null,"link_title":null,"url":"http:\/\/www.co.effingham.il.us\/","name":"Effingham County","primary_latitude":"39.05","primary_longitude":"-88.58","state_abbreviation":"IL","state_name":"Illinois"},{"county_name":null,"description":null,"feat_class":"Civil","feature_id":"37270","fips_class":"H1","fips_county_cd":"63","full_county_name":null,"link_title":null,"url":"http:\/\/www.grundyco.org\/","name":"Grundy County","primary_latitude":"41.28","primary_longitude":"-88.41","state_abbreviation":"IL","state_name":"Illinois"},{"county_name":null,"description":null,"feat_class":"Civil","feature_id":"37275","fips_class":"H1","fips_county_cd":"73","full_county_name":null,"link_title":null,"url":"http:\/\/www.henrycty.com\/","name":"Henry County","primary_latitude":"41.35","primary_longitude":"-90.15","state_abbreviation":"IL","state_name":"Illinois"},{"county_name":null,"description":null,"feat_class":"Civil","feature_id":"37277","fips_class":"H1","fips_county_cd":"77","full_county_name":null,"link_title":null,"url":"http:\/\/www.jacksoncounty-il.gov\/","name":"Jackson County","primary_latitude":"37.76","primary_longitude":"-89.35","state_abbreviation":"IL","state_name":"Illinois"},{"county_name":null,"description":null,"feat_class":"Civil","feature_id":"37281","fips_class":"H1","fips_county_cd":"85","full_county_name":null,"link_title":null,"url":"http:\/\/www.jodaviess.org\/","name":"Jo Daviess County","primary_latitude":"42.35","primary_longitude":"-90.18","state_abbreviation":"IL","state_name":"Illinois"},{"county_name":null,"description":null,"feat_class":"Civil","feature_id":"37283","fips_class":"H1","fips_county_cd":"89","full_county_name":null,"link_title":null,"url":"http:\/\/www.countyofkane.org","name":"Kane County","primary_latitude":"41.95","primary_longitude":"-88.43","state_abbreviation":"IL","state_name":"Illinois"},{"county_name":null,"description":null,"feat_class":"Civil","feature_id":"37284","fips_class":"H1","fips_county_cd":"91","full_county_name":null,"link_title":null,"url":"http:\/\/www.co.kankakee.il.us\/","name":"Kankakee County","primary_latitude":"41.15","primary_longitude":"-87.86","state_abbreviation":"IL","state_name":"Illinois"},{"county_name":null,"description":null,"feat_class":"Civil","feature_id":"37285","fips_class":"H1","fips_county_cd":"93","full_county_name":null,"link_title":null,"url":"http:\/\/www.co.kendall.il.us\/","name":"Kendall County","primary_latitude":"41.58","primary_longitude":"-88.43","state_abbreviation":"IL","state_name":"Illinois"},{"county_name":null,"description":null,"feat_class":"Civil","feature_id":"37287","fips_class":"H1","fips_county_cd":"99","full_county_name":null,"link_title":null,"url":"http:\/\/www.lasallecounty.org\/","name":"La Salle County","primary_latitude":"41.26","primary_longitude":"-88.88","state_abbreviation":"IL","state_name":"Illinois"},{"county_name":null,"description":null,"feat_class":"Civil","feature_id":"37288","fips_class":"H1","fips_county_cd":"97","full_county_name":null,"link_title":null,"url":"http:\/\/www.lakecountyil.gov","name":"Lake County","primary_latitude":"42.33","primary_longitude":"-88","state_abbreviation":"IL","state_name":"Illinois"},{"county_name":null,"description":null,"feat_class":"Civil","feature_id":"37291","fips_class":"H1","fips_county_cd":"105","full_county_name":null,"link_title":null,"url":"http:\/\/www.livingstoncounty-il.org\/","name":"Livingston County","primary_latitude":"40.86","primary_longitude":"-88.51","state_abbreviation":"IL","state_name":"Illinois"},{"county_name":null,"description":null,"feat_class":"Civil","feature_id":"37292","fips_class":"H1","fips_county_cd":"107","full_county_name":null,"link_title":null,"url":"http:\/\/www.co.logan.il.us\/","name":"Logan County","primary_latitude":"40.13","primary_longitude":"-89.36","state_abbreviation":"IL","state_name":"Illinois"},{"county_name":null,"description":null,"feat_class":"Civil","feature_id":"37295","fips_class":"H1","fips_county_cd":"119","full_county_name":null,"link_title":null,"url":"http:\/\/www.co.madison.il.us\/","name":"Madison County","primary_latitude":"38.83","primary_longitude":"-89.9","state_abbreviation":"IL","state_name":"Illinois"},{"county_name":null,"description":null,"feat_class":"Civil","feature_id":"37297","fips_class":"H1","fips_county_cd":"123","full_county_name":null,"link_title":null,"url":"http:\/\/www.co.marshall.il.us\/","name":"Marshall County","primary_latitude":"41.03","primary_longitude":"-89.36","state_abbreviation":"IL","state_name":"Illinois"},{"county_name":null,"description":null,"feat_class":"Civil","feature_id":"37298","fips_class":"H1","fips_county_cd":"125","full_county_name":null,"link_title":null,"url":"http:\/\/www.masoncountyil.org\/","name":"Mason County","primary_latitude":"40.25","primary_longitude":"-89.88","state_abbreviation":"IL","state_name":"Illinois"},{"county_name":null,"description":null,"feat_class":"Civil","feature_id":"37301","fips_class":"H1","fips_county_cd":"111","full_county_name":null,"link_title":null,"url":"http:\/\/www.co.mchenry.il.us\/","name":"McHenry County","primary_latitude":"42.33","primary_longitude":"-88.46","state_abbreviation":"IL","state_name":"Illinois"},{"county_name":null,"description":null,"feat_class":"Civil","feature_id":"37302","fips_class":"H1","fips_county_cd":"113","full_county_name":null,"link_title":null,"url":"http:\/\/www.mcleancountyil.gov\/","name":"McLean County","primary_latitude":"40.48","primary_longitude":"-88.83","state_abbreviation":"IL","state_name":"Illinois"},{"county_name":null,"description":null,"feat_class":"Civil","feature_id":"37306","fips_class":"H1","fips_county_cd":"135","full_county_name":null,"link_title":null,"url":"http:\/\/www.montgomeryco.com\/","name":"Montgomery County","primary_latitude":"39.23","primary_longitude":"-89.45","state_abbreviation":"IL","state_name":"Illinois"},{"county_name":null,"description":null,"feat_class":"Civil","feature_id":"37309","fips_class":"H1","fips_county_cd":"141","full_county_name":null,"link_title":null,"url":"http:\/\/www.oglecounty.org\/","name":"Ogle County","primary_latitude":"42.03","primary_longitude":"-89.31","state_abbreviation":"IL","state_name":"Illinois"},{"county_name":null,"description":null,"feat_class":"Civil","feature_id":"37310","fips_class":"H1","fips_county_cd":"143","full_county_name":null,"link_title":null,"url":"http:\/\/www.co.peoria.il.us\/","name":"Peoria County","primary_latitude":"40.76","primary_longitude":"-89.76","state_abbreviation":"IL","state_name":"Illinois"},{"county_name":null,"description":null,"feat_class":"Civil","feature_id":"37311","fips_class":"H1","fips_county_cd":"145","full_county_name":null,"link_title":null,"url":"http:\/\/www.perrycountyil.org","name":"Perry County","primary_latitude":"38.08","primary_longitude":"-89.36","state_abbreviation":"IL","state_name":"Illinois"},{"county_name":null,"description":null,"feat_class":"Civil","feature_id":"37312","fips_class":"H1","fips_county_cd":"147","full_county_name":null,"link_title":null,"url":"http:\/\/www.piattcounty.org\/","name":"Piatt County","primary_latitude":"40","primary_longitude":"-88.58","state_abbreviation":"IL","state_name":"Illinois"},{"county_name":null,"description":null,"feat_class":"Civil","feature_id":"37319","fips_class":"H1","fips_county_cd":"161","full_county_name":null,"link_title":null,"url":"http:\/\/www.co.rock-island.il.us\/","name":"Rock Island County","primary_latitude":"41.45","primary_longitude":"-90.51","state_abbreviation":"IL","state_name":"Illinois"},{"county_name":null,"description":null,"feat_class":"Civil","feature_id":"37320","fips_class":"H1","fips_county_cd":"163","full_county_name":null,"link_title":null,"url":"http:\/\/www.co.st-clair.il.us\/","name":"Saint Clair County","primary_latitude":"38.55","primary_longitude":"-89.91","state_abbreviation":"IL","state_name":"Illinois"},{"county_name":null,"description":null,"feat_class":"Civil","feature_id":"37322","fips_class":"H1","fips_county_cd":"167","full_county_name":null,"link_title":null,"url":"http:\/\/www.co.sangamon.il.us\/","name":"Sangamon County","primary_latitude":"39.76","primary_longitude":"-89.65","state_abbreviation":"IL","state_name":"Illinois"},{"county_name":null,"description":null,"feat_class":"Civil","feature_id":"37326","fips_class":"H1","fips_county_cd":"175","full_county_name":null,"link_title":null,"url":"http:\/\/starkco.illinois.gov\/","name":"Stark County","primary_latitude":"41.1","primary_longitude":"-89.8","state_abbreviation":"IL","state_name":"Illinois"},{"county_name":null,"description":null,"feat_class":"Civil","feature_id":"37327","fips_class":"H1","fips_county_cd":"177","full_county_name":null,"link_title":null,"url":"http:\/\/www.co.stephenson.il.us\/","name":"Stephenson County","primary_latitude":"42.35","primary_longitude":"-89.66","state_abbreviation":"IL","state_name":"Illinois"},{"county_name":null,"description":null,"feat_class":"Civil","feature_id":"37328","fips_class":"H1","fips_county_cd":"179","full_county_name":null,"link_title":null,"url":"http:\/\/www.tazewell.com\/","name":"Tazewell County","primary_latitude":"40.53","primary_longitude":"-89.55","state_abbreviation":"IL","state_name":"Illinois"},{"county_name":null,"description":null,"feat_class":"Civil","feature_id":"37330","fips_class":"H1","fips_county_cd":"183","full_county_name":null,"link_title":null,"url":"http:\/\/www.co.vermilion.il.us\/","name":"Vermilion County","primary_latitude":"40.16","primary_longitude":"-87.75","state_abbreviation":"IL","state_name":"Illinois"},{"county_name":null,"description":null,"feat_class":"Civil","feature_id":"37336","fips_class":"H1","fips_county_cd":"195","full_county_name":null,"link_title":null,"url":"http:\/\/www.whiteside.org\/","name":"Whiteside County","primary_latitude":"41.75","primary_longitude":"-89.91","state_abbreviation":"IL","state_name":"Illinois"},{"county_name":null,"description":null,"feat_class":"Civil","feature_id":"37337","fips_class":"H1","fips_county_cd":"197","full_county_name":null,"link_title":null,"url":"http:\/\/www.willcountyillinois.com\/","name":"Will County","primary_latitude":"41.43","primary_longitude":"-87.96","state_abbreviation":"IL","state_name":"Illinois"},{"county_name":null,"description":null,"feat_class":"Civil","feature_id":"37339","fips_class":"H1","fips_county_cd":"201","full_county_name":null,"link_title":null,"url":"http:\/\/www.co.winnebago.il.us\/","name":"Winnebago County","primary_latitude":"42.35","primary_longitude":"-89.18","state_abbreviation":"IL","state_name":"Illinois"}]