[{"county_name":null,"description":null,"feat_class":"Civil","feature_id":"37948","fips_class":"H1","fips_county_cd":"7","full_county_name":null,"link_title":null,"url":"http:\/\/www.audraincounty.org\/","name":"Audrain County","primary_latitude":"39.21","primary_longitude":"-91.86","state_abbreviation":"MO","state_name":"Missouri"},{"county_name":null,"description":null,"feat_class":"Civil","feature_id":"37954","fips_class":"H1","fips_county_cd":"19","full_county_name":null,"link_title":null,"url":"http:\/\/www.showmeboone.com\/","name":"Boone County","primary_latitude":"39.03","primary_longitude":"-92.33","state_abbreviation":"MO","state_name":"Missouri"},{"county_name":null,"description":null,"feat_class":"Civil","feature_id":"37955","fips_class":"H1","fips_county_cd":"21","full_county_name":null,"link_title":null,"url":"http:\/\/www.co.buchanan.mo.us\/","name":"Buchanan County","primary_latitude":"39.64","primary_longitude":"-94.76","state_abbreviation":"MO","state_name":"Missouri"},{"county_name":null,"description":null,"feat_class":"Civil","feature_id":"37960","fips_class":"H1","fips_county_cd":"31","full_county_name":null,"link_title":null,"url":"http:\/\/www.capecounty.us\/","name":"Cape Girardeau County","primary_latitude":"37.38","primary_longitude":"-89.71","state_abbreviation":"MO","state_name":"Missouri"},{"county_name":null,"description":null,"feat_class":"Civil","feature_id":"37963","fips_class":"H1","fips_county_cd":"37","full_county_name":null,"link_title":null,"url":"http:\/\/www.casscounty.com\/","name":"Cass County","primary_latitude":"38.65","primary_longitude":"-94.36","state_abbreviation":"MO","state_name":"Missouri"},{"county_name":null,"description":null,"feat_class":"Civil","feature_id":"37968","fips_class":"H1","fips_county_cd":"47","full_county_name":null,"link_title":null,"url":"http:\/\/www.claycogov.com\/","name":"Clay County","primary_latitude":"39.31","primary_longitude":"-94.4","state_abbreviation":"MO","state_name":"Missouri"},{"county_name":null,"description":null,"feat_class":"Civil","feature_id":"37970","fips_class":"H1","fips_county_cd":"51","full_county_name":null,"link_title":null,"url":"http:\/\/www.colecounty.org\/","name":"Cole County","primary_latitude":"38.5","primary_longitude":"-92.28","state_abbreviation":"MO","state_name":"Missouri"},{"county_name":null,"description":null,"feat_class":"Civil","feature_id":"37980","fips_class":"H1","fips_county_cd":"71","full_county_name":null,"link_title":null,"url":"http:\/\/www.franklinmo.org\/","name":"Franklin County","primary_latitude":"38.43","primary_longitude":"-91.06","state_abbreviation":"MO","state_name":"Missouri"},{"county_name":null,"description":null,"feat_class":"Civil","feature_id":"37983","fips_class":"H1","fips_county_cd":"77","full_county_name":null,"link_title":null,"url":"http:\/\/www.greenecountymo.org\/","name":"Greene County","primary_latitude":"37.26","primary_longitude":"-93.35","state_abbreviation":"MO","state_name":"Missouri"},{"county_name":null,"description":null,"feat_class":"Civil","feature_id":"37992","fips_class":"H1","fips_county_cd":"95","full_county_name":null,"link_title":null,"url":"http:\/\/www.jacksongov.org\/","name":"Jackson County","primary_latitude":"39.01","primary_longitude":"-94.35","state_abbreviation":"MO","state_name":"Missouri"},{"county_name":null,"description":null,"feat_class":"Civil","feature_id":"37994","fips_class":"H1","fips_county_cd":"99","full_county_name":null,"link_title":null,"url":"http:\/\/www.jeffcomo.org\/","name":"Jefferson County","primary_latitude":"38.26","primary_longitude":"-90.58","state_abbreviation":"MO","state_name":"Missouri"},{"county_name":null,"description":null,"feat_class":"Civil","feature_id":"37995","fips_class":"H1","fips_county_cd":"101","full_county_name":null,"link_title":null,"url":"http:\/\/www.jococourthouse.com\/","name":"Johnson County","primary_latitude":"38.75","primary_longitude":"-93.8","state_abbreviation":"MO","state_name":"Missouri"},{"county_name":null,"description":null,"feat_class":"Civil","feature_id":"37997","fips_class":"H1","fips_county_cd":"105","full_county_name":null,"link_title":null,"url":"http:\/\/www.lacledecountymissouri.org\/","name":"Laclede County","primary_latitude":"37.65","primary_longitude":"-92.6","state_abbreviation":"MO","state_name":"Missouri"},{"county_name":null,"description":null,"feat_class":"Civil","feature_id":"38023","fips_class":"H1","fips_county_cd":"157","full_county_name":null,"link_title":null,"url":"http:\/\/www.perryvillemo.com\/","name":"Perry County","primary_latitude":"37.7","primary_longitude":"-89.83","state_abbreviation":"MO","state_name":"Missouri"},{"county_name":null,"description":null,"feat_class":"Civil","feature_id":"38025","fips_class":"H1","fips_county_cd":"161","full_county_name":null,"link_title":null,"url":"http:\/\/www.phelpscounty.org\/","name":"Phelps County","primary_latitude":"37.9","primary_longitude":"-91.83","state_abbreviation":"MO","state_name":"Missouri"},{"county_name":null,"description":null,"feat_class":"Civil","feature_id":"38027","fips_class":"H1","fips_county_cd":"165","full_county_name":null,"link_title":null,"url":"http:\/\/www.co.platte.mo.us\/","name":"Platte County","primary_latitude":"39.41","primary_longitude":"-94.8","state_abbreviation":"MO","state_name":"Missouri"},{"county_name":null,"description":null,"feat_class":"Civil","feature_id":"38036","fips_class":"H1","fips_county_cd":"183","full_county_name":null,"link_title":null,"url":"http:\/\/www.sccmo.org\/","name":"Saint Charles County","primary_latitude":"38.76","primary_longitude":"-90.73","state_abbreviation":"MO","state_name":"Missouri"},{"county_name":null,"description":null,"feat_class":"Civil","feature_id":"38039","fips_class":"H1","fips_county_cd":"189","full_county_name":null,"link_title":null,"url":"http:\/\/www.co.st-louis.mo.us\/","name":"Saint Louis County","primary_latitude":"38.63","primary_longitude":"-90.4","state_abbreviation":"MO","state_name":"Missouri"},{"county_name":null,"description":null,"feat_class":"Civil","feature_id":"38050","fips_class":"H1","fips_county_cd":"213","full_county_name":null,"link_title":null,"url":"http:\/\/www.co.taney.mo.us\/","name":"Taney County","primary_latitude":"36.65","primary_longitude":"-93.05","state_abbreviation":"MO","state_name":"Missouri"},{"county_name":null,"description":null,"feat_class":"Civil","feature_id":"38052","fips_class":"H1","fips_county_cd":"217","full_county_name":null,"link_title":null,"url":"http:\/\/www.vernoncountymo.org\/","name":"Vernon County","primary_latitude":"37.85","primary_longitude":"-94.35","state_abbreviation":"MO","state_name":"Missouri"}]