[{"county_name":null,"description":null,"feat_class":"Civil","feature_id":"38400","fips_class":"H1","fips_county_cd":"101","full_county_name":null,"link_title":null,"url":"http:\/\/www.co.keith.ne.us\/","name":"Keith County","primary_latitude":"41.19","primary_longitude":"-101.65","state_abbreviation":"NE","state_name":"Nebraska"},{"county_name":null,"description":null,"feat_class":"Civil","feature_id":"38401","fips_class":"H1","fips_county_cd":"103","full_county_name":null,"link_title":null,"url":"http:\/\/www.co.keya-paha.ne.us\/","name":"Keya Paha County","primary_latitude":"40.16","primary_longitude":"-101.05","state_abbreviation":"NE","state_name":"Nebraska"},{"county_name":null,"description":null,"feat_class":"Civil","feature_id":"38402","fips_class":"H1","fips_county_cd":"105","full_county_name":null,"link_title":null,"url":"http:\/\/www.co.kimball.ne.us\/","name":"Kimball County","primary_latitude":"41.19","primary_longitude":"-103.71","state_abbreviation":"NE","state_name":"Nebraska"},{"county_name":null,"description":null,"feat_class":"Civil","feature_id":"38403","fips_class":"H1","fips_county_cd":"107","full_county_name":null,"link_title":null,"url":"http:\/\/www.co.knox.ne.us\/","name":"Knox County","primary_latitude":"42.63","primary_longitude":"-97.88","state_abbreviation":"NE","state_name":"Nebraska"},{"county_name":null,"description":null,"feat_class":"Civil","feature_id":"38404","fips_class":"H1","fips_county_cd":"109","full_county_name":null,"link_title":null,"url":"http:\/\/www.lincoln.ne.gov\/","name":"Lancaster County","primary_latitude":"40.78","primary_longitude":"-96.68","state_abbreviation":"NE","state_name":"Nebraska"},{"county_name":null,"description":null,"feat_class":"Civil","feature_id":"38405","fips_class":"H1","fips_county_cd":"111","full_county_name":null,"link_title":null,"url":"http:\/\/www.co.lincoln.ne.us\/","name":"Lincoln County","primary_latitude":"41.04","primary_longitude":"-100.76","state_abbreviation":"NE","state_name":"Nebraska"},{"county_name":null,"description":null,"feat_class":"Civil","feature_id":"38407","fips_class":"H1","fips_county_cd":"115","full_county_name":null,"link_title":null,"url":"http:\/\/www.co.loup.ne.us\/","name":"Loup County","primary_latitude":"41.91","primary_longitude":"-99.46","state_abbreviation":"NE","state_name":"Nebraska"},{"county_name":null,"description":null,"feat_class":"Civil","feature_id":"38408","fips_class":"H1","fips_county_cd":"119","full_county_name":null,"link_title":null,"url":"http:\/\/www.co.madison.ne.us\/","name":"Madison County","primary_latitude":"41.91","primary_longitude":"-97.6","state_abbreviation":"NE","state_name":"Nebraska"},{"county_name":null,"description":null,"feat_class":"Civil","feature_id":"38412","fips_class":"H1","fips_county_cd":"125","full_county_name":null,"link_title":null,"url":"http:\/\/www.co.nance.ne.us\/","name":"Nance County","primary_latitude":"41.4","primary_longitude":"-98","state_abbreviation":"NE","state_name":"Nebraska"},{"county_name":null,"description":null,"feat_class":"Civil","feature_id":"38415","fips_class":"H1","fips_county_cd":"131","full_county_name":null,"link_title":null,"url":"http:\/\/www.co.otoe.ne.us\/","name":"Otoe County","primary_latitude":"40.63","primary_longitude":"-96.13","state_abbreviation":"NE","state_name":"Nebraska"},{"county_name":null,"description":null,"feat_class":"Civil","feature_id":"38416","fips_class":"H1","fips_county_cd":"133","full_county_name":null,"link_title":null,"url":"http:\/\/www.co.pawnee.ne.us\/","name":"Pawnee County","primary_latitude":"40.13","primary_longitude":"-96.23","state_abbreviation":"NE","state_name":"Nebraska"},{"county_name":null,"description":null,"feat_class":"Civil","feature_id":"38417","fips_class":"H1","fips_county_cd":"135","full_county_name":null,"link_title":null,"url":"http:\/\/www.co.perkins.ne.us\/","name":"Perkins County","primary_latitude":"40.83","primary_longitude":"-101.58","state_abbreviation":"NE","state_name":"Nebraska"},{"county_name":null,"description":null,"feat_class":"Civil","feature_id":"38419","fips_class":"H1","fips_county_cd":"139","full_county_name":null,"link_title":null,"url":"http:\/\/www.co.pierce.ne.us\/","name":"Pierce County","primary_latitude":"42.26","primary_longitude":"-97.6","state_abbreviation":"NE","state_name":"Nebraska"},{"county_name":null,"description":null,"feat_class":"Civil","feature_id":"38420","fips_class":"H1","fips_county_cd":"141","full_county_name":null,"link_title":null,"url":"http:\/\/www.plattecounty.net\/","name":"Platte County","primary_latitude":"41.55","primary_longitude":"-97.48","state_abbreviation":"NE","state_name":"Nebraska"},{"county_name":null,"description":null,"feat_class":"Civil","feature_id":"38422","fips_class":"H1","fips_county_cd":"145","full_county_name":null,"link_title":null,"url":"http:\/\/www.co.red-willow.ne.us\/","name":"Red Willow County","primary_latitude":"40.16","primary_longitude":"-100.48","state_abbreviation":"NE","state_name":"Nebraska"},{"county_name":null,"description":null,"feat_class":"Civil","feature_id":"38423","fips_class":"H1","fips_county_cd":"147","full_county_name":null,"link_title":null,"url":"http:\/\/www.co.richardson.ne.us\/","name":"Richardson County","primary_latitude":"40.15","primary_longitude":"-95.7","state_abbreviation":"NE","state_name":"Nebraska"},{"county_name":null,"description":null,"feat_class":"Civil","feature_id":"38425","fips_class":"H1","fips_county_cd":"151","full_county_name":null,"link_title":null,"url":"http:\/\/www.co.saline.ne.us\/","name":"Saline County","primary_latitude":"40.53","primary_longitude":"-97.15","state_abbreviation":"NE","state_name":"Nebraska"},{"county_name":null,"description":null,"feat_class":"Civil","feature_id":"38426","fips_class":"H1","fips_county_cd":"153","full_county_name":null,"link_title":null,"url":"http:\/\/www.sarpy.com\/","name":"Sarpy County","primary_latitude":"41.09","primary_longitude":"-96.13","state_abbreviation":"NE","state_name":"Nebraska"},{"county_name":null,"description":null,"feat_class":"Civil","feature_id":"38427","fips_class":"H1","fips_county_cd":"155","full_county_name":null,"link_title":null,"url":"http:\/\/www.saunderscounty.ne.gov\/","name":"Saunders County","primary_latitude":"41.21","primary_longitude":"-96.61","state_abbreviation":"NE","state_name":"Nebraska"},{"county_name":null,"description":null,"feat_class":"Civil","feature_id":"38428","fips_class":"H1","fips_county_cd":"157","full_county_name":null,"link_title":null,"url":"http:\/\/www.scottsbluffcounty.org\/","name":"Scotts Bluff County","primary_latitude":"41.86","primary_longitude":"-103.7","state_abbreviation":"NE","state_name":"Nebraska"},{"county_name":null,"description":null,"feat_class":"Civil","feature_id":"38429","fips_class":"H1","fips_county_cd":"159","full_county_name":null,"link_title":null,"url":"http:\/\/connectseward.org\/cgov\/","name":"Seward County","primary_latitude":"40.86","primary_longitude":"-97.15","state_abbreviation":"NE","state_name":"Nebraska"},{"county_name":null,"description":null,"feat_class":"Civil","feature_id":"38431","fips_class":"H1","fips_county_cd":"163","full_county_name":null,"link_title":null,"url":"http:\/\/www.co.sherman.ne.us\/","name":"Sherman County","primary_latitude":"41.21","primary_longitude":"-98.98","state_abbreviation":"NE","state_name":"Nebraska"},{"county_name":null,"description":null,"feat_class":"Civil","feature_id":"38432","fips_class":"H1","fips_county_cd":"165","full_county_name":null,"link_title":null,"url":"http:\/\/www.co.sioux.ne.us\/","name":"Sioux County","primary_latitude":"42.46","primary_longitude":"-103.76","state_abbreviation":"NE","state_name":"Nebraska"},{"county_name":null,"description":null,"feat_class":"Civil","feature_id":"38433","fips_class":"H1","fips_county_cd":"167","full_county_name":null,"link_title":null,"url":"http:\/\/www.co.stanton.ne.us\/","name":"Stanton County","primary_latitude":"41.91","primary_longitude":"-97.18","state_abbreviation":"NE","state_name":"Nebraska"},{"county_name":null,"description":null,"feat_class":"Civil","feature_id":"38434","fips_class":"H1","fips_county_cd":"169","full_county_name":null,"link_title":null,"url":"http:\/\/www.thayercounty.ne.gov\/","name":"Thayer County","primary_latitude":"40.16","primary_longitude":"-97.6","state_abbreviation":"NE","state_name":"Nebraska"},{"county_name":null,"description":null,"feat_class":"Civil","feature_id":"38437","fips_class":"H1","fips_county_cd":"175","full_county_name":null,"link_title":null,"url":"http:\/\/www.co.valley.ne.us\/","name":"Valley County","primary_latitude":"41.56","primary_longitude":"-98.98","state_abbreviation":"NE","state_name":"Nebraska"},{"county_name":null,"description":null,"feat_class":"Civil","feature_id":"38438","fips_class":"H1","fips_county_cd":"177","full_county_name":null,"link_title":null,"url":"http:\/\/www.co.washington.ne.us\/","name":"Washington County","primary_latitude":"41.54","primary_longitude":"-96.26","state_abbreviation":"NE","state_name":"Nebraska"},{"county_name":null,"description":null,"feat_class":"Civil","feature_id":"38439","fips_class":"H1","fips_county_cd":"179","full_county_name":null,"link_title":null,"url":"http:\/\/www.waynecountyne.org\/","name":"Wayne County","primary_latitude":"42.2","primary_longitude":"-97.15","state_abbreviation":"NE","state_name":"Nebraska"},{"county_name":null,"description":null,"feat_class":"Civil","feature_id":"38440","fips_class":"H1","fips_county_cd":"181","full_county_name":null,"link_title":null,"url":"http:\/\/www.co.webster.ne.us\/","name":"Webster County","primary_latitude":"40.16","primary_longitude":"-98.5","state_abbreviation":"NE","state_name":"Nebraska"},{"county_name":null,"description":null,"feat_class":"Civil","feature_id":"38442","fips_class":"H1","fips_county_cd":"185","full_county_name":null,"link_title":null,"url":"http:\/\/www.yorkcounty.ne.gov\/","name":"York County","primary_latitude":"40.86","primary_longitude":"-97.6","state_abbreviation":"NE","state_name":"Nebraska"},{"county_name":null,"description":null,"feat_class":"Civil","feature_id":"38350","fips_class":"H1","fips_county_cd":"1","full_county_name":null,"link_title":null,"url":"http:\/\/www.adamscounty.org\/","name":"Adams County","primary_latitude":"40.53","primary_longitude":"-98.5","state_abbreviation":"NE","state_name":"Nebraska"},{"county_name":null,"description":null,"feat_class":"Civil","feature_id":"38351","fips_class":"H1","fips_county_cd":"3","full_county_name":null,"link_title":null,"url":"http:\/\/www.co.antelope.ne.us\/","name":"Antelope County","primary_latitude":"42.16","primary_longitude":"-98.06","state_abbreviation":"NE","state_name":"Nebraska"},{"county_name":null,"description":null,"feat_class":"Civil","feature_id":"38353","fips_class":"H1","fips_county_cd":"7","full_county_name":null,"link_title":null,"url":"http:\/\/www.bannercounty-gov.us\/","name":"Banner County","primary_latitude":"41.54","primary_longitude":"-103.71","state_abbreviation":"NE","state_name":"Nebraska"},{"county_name":null,"description":null,"feat_class":"Civil","feature_id":"38354","fips_class":"H1","fips_county_cd":"9","full_county_name":null,"link_title":null,"url":"http:\/\/www.blainecounty.ne.gov","name":"Blaine County","primary_latitude":"41.91","primary_longitude":"-99.96","state_abbreviation":"NE","state_name":"Nebraska"},{"county_name":null,"description":null,"feat_class":"Civil","feature_id":"38355","fips_class":"H1","fips_county_cd":"11","full_county_name":null,"link_title":null,"url":"http:\/\/www.co.boone.ne.us\/","name":"Boone County","primary_latitude":"41.7","primary_longitude":"-98.08","state_abbreviation":"NE","state_name":"Nebraska"},{"county_name":null,"description":null,"feat_class":"Civil","feature_id":"38356","fips_class":"H1","fips_county_cd":"13","full_county_name":null,"link_title":null,"url":"http:\/\/www.co.box-butte.ne.us\/","name":"Box Butte County","primary_latitude":"42.23","primary_longitude":"-103.08","state_abbreviation":"NE","state_name":"Nebraska"},{"county_name":null,"description":null,"feat_class":"Civil","feature_id":"38359","fips_class":"H1","fips_county_cd":"19","full_county_name":null,"link_title":null,"url":"http:\/\/www.buffalogov.org\/","name":"Buffalo County","primary_latitude":"40.85","primary_longitude":"-99.08","state_abbreviation":"NE","state_name":"Nebraska"},{"county_name":null,"description":null,"feat_class":"Civil","feature_id":"38361","fips_class":"H1","fips_county_cd":"23","full_county_name":null,"link_title":null,"url":"http:\/\/www.co.butler.ne.us\/","name":"Butler County","primary_latitude":"41.23","primary_longitude":"-97.13","state_abbreviation":"NE","state_name":"Nebraska"},{"county_name":null,"description":null,"feat_class":"Civil","feature_id":"38362","fips_class":"H1","fips_county_cd":"25","full_county_name":null,"link_title":null,"url":"http:\/\/www.cassne.org\/","name":"Cass County","primary_latitude":"40.91","primary_longitude":"-96.13","state_abbreviation":"NE","state_name":"Nebraska"},{"county_name":null,"description":null,"feat_class":"Civil","feature_id":"38363","fips_class":"H1","fips_county_cd":"27","full_county_name":null,"link_title":null,"url":"http:\/\/www.co.cedar.ne.us\/","name":"Cedar County","primary_latitude":"42.59","primary_longitude":"-97.26","state_abbreviation":"NE","state_name":"Nebraska"},{"county_name":null,"description":null,"feat_class":"Civil","feature_id":"38364","fips_class":"H1","fips_county_cd":"29","full_county_name":null,"link_title":null,"url":"http:\/\/www.co.chase.ne.us\/","name":"Chase County","primary_latitude":"40.53","primary_longitude":"-101.7","state_abbreviation":"NE","state_name":"Nebraska"},{"county_name":null,"description":null,"feat_class":"Civil","feature_id":"38365","fips_class":"H1","fips_county_cd":"31","full_county_name":null,"link_title":null,"url":"http:\/\/www.co.cherry.ne.us\/","name":"Cherry County","primary_latitude":"42.55","primary_longitude":"-101.1","state_abbreviation":"NE","state_name":"Nebraska"},{"county_name":null,"description":null,"feat_class":"Civil","feature_id":"38366","fips_class":"H1","fips_county_cd":"33","full_county_name":null,"link_title":null,"url":"http:\/\/www.co.cheyenne.ne.us\/","name":"Cheyenne County","primary_latitude":"41.21","primary_longitude":"-103","state_abbreviation":"NE","state_name":"Nebraska"},{"county_name":null,"description":null,"feat_class":"Civil","feature_id":"38368","fips_class":"H1","fips_county_cd":"37","full_county_name":null,"link_title":null,"url":"http:\/\/www.colfaxcounty.ne.gov\/","name":"Colfax County","primary_latitude":"41.56","primary_longitude":"-97.08","state_abbreviation":"NE","state_name":"Nebraska"},{"county_name":null,"description":null,"feat_class":"Civil","feature_id":"38369","fips_class":"H1","fips_county_cd":"39","full_county_name":null,"link_title":null,"url":"http:\/\/www.co.cuming.ne.us\/","name":"Cuming County","primary_latitude":"41.91","primary_longitude":"-96.78","state_abbreviation":"NE","state_name":"Nebraska"},{"county_name":null,"description":null,"feat_class":"Civil","feature_id":"38370","fips_class":"H1","fips_county_cd":"41","full_county_name":null,"link_title":null,"url":"http:\/\/www.co.custer.ne.us\/","name":"Custer County","primary_latitude":"41.4","primary_longitude":"-99.88","state_abbreviation":"NE","state_name":"Nebraska"},{"county_name":null,"description":null,"feat_class":"Civil","feature_id":"38372","fips_class":"H1","fips_county_cd":"45","full_county_name":null,"link_title":null,"url":"http:\/\/www.co.dawes.ne.us\/","name":"Dawes County","primary_latitude":"42.71","primary_longitude":"-103.13","state_abbreviation":"NE","state_name":"Nebraska"},{"county_name":null,"description":null,"feat_class":"Civil","feature_id":"38373","fips_class":"H1","fips_county_cd":"47","full_county_name":null,"link_title":null,"url":"http:\/\/www.dawsoncountyne.net\/","name":"Dawson County","primary_latitude":"40.86","primary_longitude":"-99.81","state_abbreviation":"NE","state_name":"Nebraska"},{"county_name":null,"description":null,"feat_class":"Civil","feature_id":"38374","fips_class":"H1","fips_county_cd":"49","full_county_name":null,"link_title":null,"url":"http:\/\/www.co.deuel.ne.us\/","name":"Deuel County","primary_latitude":"41.11","primary_longitude":"-102.33","state_abbreviation":"NE","state_name":"Nebraska"},{"county_name":null,"description":null,"feat_class":"Civil","feature_id":"38375","fips_class":"H1","fips_county_cd":"51","full_county_name":null,"link_title":null,"url":"http:\/\/www.co.dixon.ne.us\/","name":"Dixon County","primary_latitude":"42.51","primary_longitude":"-96.81","state_abbreviation":"NE","state_name":"Nebraska"},{"county_name":null,"description":null,"feat_class":"Civil","feature_id":"38376","fips_class":"H1","fips_county_cd":"53","full_county_name":null,"link_title":null,"url":"http:\/\/www.dodgecounty.ne.gov\/","name":"Dodge County","primary_latitude":"41.56","primary_longitude":"-96.63","state_abbreviation":"NE","state_name":"Nebraska"},{"county_name":null,"description":null,"feat_class":"Civil","feature_id":"38377","fips_class":"H1","fips_county_cd":"55","full_county_name":null,"link_title":null,"url":"http:\/\/www.douglascounty-ne.gov\/","name":"Douglas County","primary_latitude":"41.29","primary_longitude":"-96.16","state_abbreviation":"NE","state_name":"Nebraska"},{"county_name":null,"description":null,"feat_class":"Civil","feature_id":"38379","fips_class":"H1","fips_county_cd":"59","full_county_name":null,"link_title":null,"url":"http:\/\/www.fillmorecounty.org\/","name":"Fillmore County","primary_latitude":"40.53","primary_longitude":"-97.6","state_abbreviation":"NE","state_name":"Nebraska"},{"county_name":null,"description":null,"feat_class":"Civil","feature_id":"38381","fips_class":"H1","fips_county_cd":"63","full_county_name":null,"link_title":null,"url":"http:\/\/www.co.frontier.ne.us\/","name":"Frontier County","primary_latitude":"40.55","primary_longitude":"-100.4","state_abbreviation":"NE","state_name":"Nebraska"},{"county_name":null,"description":null,"feat_class":"Civil","feature_id":"38383","fips_class":"H1","fips_county_cd":"67","full_county_name":null,"link_title":null,"url":"http:\/\/www.co.gage.ne.us\/","name":"Gage County","primary_latitude":"40.26","primary_longitude":"-96.68","state_abbreviation":"NE","state_name":"Nebraska"},{"county_name":null,"description":null,"feat_class":"Civil","feature_id":"38384","fips_class":"H1","fips_county_cd":"69","full_county_name":null,"link_title":null,"url":"http:\/\/www.co.garden.ne.us\/","name":"Garden County","primary_latitude":"41.63","primary_longitude":"-102.31","state_abbreviation":"NE","state_name":"Nebraska"},{"county_name":null,"description":null,"feat_class":"Civil","feature_id":"38389","fips_class":"H1","fips_county_cd":"79","full_county_name":null,"link_title":null,"url":"http:\/\/www.hallcountyne.gov\/","name":"Hall County","primary_latitude":"40.86","primary_longitude":"-98.5","state_abbreviation":"NE","state_name":"Nebraska"},{"county_name":null,"description":null,"feat_class":"Civil","feature_id":"38390","fips_class":"H1","fips_county_cd":"81","full_county_name":null,"link_title":null,"url":"http:\/\/www.co.hamilton.ne.us\/","name":"Hamilton County","primary_latitude":"40.86","primary_longitude":"-97.98","state_abbreviation":"NE","state_name":"Nebraska"},{"county_name":null,"description":null,"feat_class":"Civil","feature_id":"38392","fips_class":"H1","fips_county_cd":"85","full_county_name":null,"link_title":null,"url":"http:\/\/www.hayescounty.ne.gov\/","name":"Hayes County","primary_latitude":"40.53","primary_longitude":"-101.05","state_abbreviation":"NE","state_name":"Nebraska"},{"county_name":null,"description":null,"feat_class":"Civil","feature_id":"38393","fips_class":"H1","fips_county_cd":"87","full_county_name":null,"link_title":null,"url":"http:\/\/www.co.hitchcock.ne.us\/","name":"Hitchcock County","primary_latitude":"40.16","primary_longitude":"-101.05","state_abbreviation":"NE","state_name":"Nebraska"},{"county_name":null,"description":null,"feat_class":"Civil","feature_id":"38394","fips_class":"H1","fips_county_cd":"89","full_county_name":null,"link_title":null,"url":"http:\/\/www.co.holt.ne.us\/","name":"Holt County","primary_latitude":"42.45","primary_longitude":"-98.76","state_abbreviation":"NE","state_name":"Nebraska"},{"county_name":null,"description":null,"feat_class":"Civil","feature_id":"38395","fips_class":"H1","fips_county_cd":"91","full_county_name":null,"link_title":null,"url":"http:\/\/www.co.hooker.ne.us\/","name":"Hooker County","primary_latitude":"41.91","primary_longitude":"-101.15","state_abbreviation":"NE","state_name":"Nebraska"},{"county_name":null,"description":null,"feat_class":"Civil","feature_id":"38397","fips_class":"H1","fips_county_cd":"95","full_county_name":null,"link_title":null,"url":"http:\/\/www.co.jefferson.ne.us\/","name":"Jefferson County","primary_latitude":"40.16","primary_longitude":"-97.15","state_abbreviation":"NE","state_name":"Nebraska"},{"county_name":null,"description":null,"feat_class":"Civil","feature_id":"38398","fips_class":"H1","fips_county_cd":"97","full_county_name":null,"link_title":null,"url":"http:\/\/www.co.johnson.ne.us\/","name":"Johnson County","primary_latitude":"40.39","primary_longitude":"-96.26","state_abbreviation":"NE","state_name":"Nebraska"},{"county_name":null,"description":null,"feat_class":"Civil","feature_id":"38399","fips_class":"H1","fips_county_cd":"99","full_county_name":null,"link_title":null,"url":"http:\/\/www.kearneycounty.ne.gov\/","name":"Kearney County","primary_latitude":"40.5","primary_longitude":"-98.95","state_abbreviation":"NE","state_name":"Nebraska"}]