[{"county_name":null,"description":null,"feat_class":"Civil","feature_id":"38983","fips_class":"H1","fips_county_cd":"5","full_county_name":null,"link_title":null,"url":"http:\/\/www.beadlecounty.org\/","name":"Beadle County","primary_latitude":"44.38","primary_longitude":"-98.28","state_abbreviation":"SD","state_name":"South Dakota"},{"county_name":null,"description":null,"feat_class":"Civil","feature_id":"38986","fips_class":"H1","fips_county_cd":"11","full_county_name":null,"link_title":null,"url":"http:\/\/www.brookingscountysd.gov\/","name":"Brookings County","primary_latitude":"44.3","primary_longitude":"-96.81","state_abbreviation":"SD","state_name":"South Dakota"},{"county_name":null,"description":null,"feat_class":"Civil","feature_id":"38987","fips_class":"H1","fips_county_cd":"13","full_county_name":null,"link_title":null,"url":"http:\/\/www.brown.sd.us\/","name":"Brown County","primary_latitude":"45.55","primary_longitude":"-98.3","state_abbreviation":"SD","state_name":"South Dakota"},{"county_name":null,"description":null,"feat_class":"Civil","feature_id":"38994","fips_class":"H1","fips_county_cd":"27","full_county_name":null,"link_title":null,"url":"http:\/\/www.claycountysd.org\/","name":"Clay County","primary_latitude":"42.91","primary_longitude":"-96.95","state_abbreviation":"SD","state_name":"South Dakota"},{"county_name":null,"description":null,"feat_class":"Civil","feature_id":"38995","fips_class":"H1","fips_county_cd":"29","full_county_name":null,"link_title":null,"url":"http:\/\/www.codington.org\/","name":"Codington County","primary_latitude":"44.95","primary_longitude":"-97.18","state_abbreviation":"SD","state_name":"South Dakota"},{"county_name":null,"description":null,"feat_class":"Civil","feature_id":"38998","fips_class":"H1","fips_county_cd":"35","full_county_name":null,"link_title":null,"url":"http:\/\/www.davisoncounty.org\/","name":"Davison County","primary_latitude":"43.66","primary_longitude":"-98.17","state_abbreviation":"SD","state_name":"South Dakota"},{"county_name":null,"description":null,"feat_class":"Civil","feature_id":"39021","fips_class":"H1","fips_county_cd":"81","full_county_name":null,"link_title":null,"url":"http:\/\/www.lawrence.sd.us\/","name":"Lawrence County","primary_latitude":"44.36","primary_longitude":"-103.81","state_abbreviation":"SD","state_name":"South Dakota"},{"county_name":null,"description":null,"feat_class":"Civil","feature_id":"39027","fips_class":"H1","fips_county_cd":"93","full_county_name":null,"link_title":null,"url":"http:\/\/www.meadecounty.org\/","name":"Meade County","primary_latitude":"44.5","primary_longitude":"-102.62","state_abbreviation":"SD","state_name":"South Dakota"},{"county_name":null,"description":null,"feat_class":"Civil","feature_id":"39030","fips_class":"H1","fips_county_cd":"99","full_county_name":null,"link_title":null,"url":"http:\/\/www.minnehahacounty.org\/","name":"Minnehaha County","primary_latitude":"43.66","primary_longitude":"-96.75","state_abbreviation":"SD","state_name":"South Dakota"},{"county_name":null,"description":null,"feat_class":"Civil","feature_id":"39032","fips_class":"H1","fips_county_cd":"103","full_county_name":null,"link_title":null,"url":"http:\/\/www.co.pennington.sd.us\/","name":"Pennington County","primary_latitude":"43.98","primary_longitude":"-102.76","state_abbreviation":"SD","state_name":"South Dakota"},{"county_name":null,"description":null,"feat_class":"Civil","feature_id":"39040","fips_class":"H1","fips_county_cd":"119","full_county_name":null,"link_title":null,"url":"http:\/\/www.sullycounty.net\/","name":"Sully County","primary_latitude":"44.68","primary_longitude":"-100.16","state_abbreviation":"SD","state_name":"South Dakota"},{"county_name":null,"description":null,"feat_class":"Civil","feature_id":"39046","fips_class":"H1","fips_county_cd":"135","full_county_name":null,"link_title":null,"url":"http:\/\/www.co.yankton.sd.us\/","name":"Yankton County","primary_latitude":"43.04","primary_longitude":"-97.38","state_abbreviation":"SD","state_name":"South Dakota"}]